Unnamed: 0,gen,sp,en,lat,lng,alt,date,location,state,aqi
0,Prinia,lepida,Delicate Prinia,22.9146,71.9718,10,03-02-2019,"Vadhla Dam, Moti Kathechi, Surendranagar",Gujarat,137
1,Prinia,lepida,Delicate Prinia,31.1358,74.9525,220,14-01-2016,"Harike wetlands, Talwandi Nepalan, Ferozepur",Punjab,142
2,Ducula,cuprea,Malabar Imperial Pigeon,15.375,74.2542,190,05-05-2009,"Tambdi Surla, Bhagwan Mahaveer Wildlife Sanctuary",Goa,46
3,Ducula,cuprea,Malabar Imperial Pigeon,15.375,74.2542,190,05-05-2009,"Tambdi Surla, Bhagwan Mahaveer Wildlife Sanctuary",Goa,46
4,Prinia,lepida,Delicate Prinia,23.261,69.2036,180,30-01-2013,Rampar Roha Abdasa Taluka Kachchh,Gujarat,137
5,Prinia,lepida,Delicate Prinia,23.261,69.2036,180,30-01-2013,Rampar Roha Abdasa Taluka Kachchh,Gujarat,137
6,Prinia,lepida,Delicate Prinia,23.1359,71.7451,121,30-12-2011,Kachchh,Gujarat,137
7,Prinia,lepida,Delicate Prinia,27.6167,95.5501,63,0000-00-00,Doom Dooma Tinsukia District,Assam,89
8,Ducula,cuprea,Malabar Imperial Pigeon,10.1274,76.7546,60,03-02-2016,"Thattekad Bird Sanctuary--Urulanthanni, Idukki County",Kerala,91
9,Ducula,cuprea,Malabar Imperial Pigeon,10.1274,76.7546,60,01-02-2016,"Thattekad Bird Sanctuary--Urulanthanni, Idukki County",Kerala,91
10,Chloropsis,moluccensis,Blue-winged Leafbird,23.733,92.6673,800,24-10-2018,"Aizawl, Aizawl",Mizoram,37
11,Ducula,cuprea,Malabar Imperial Pigeon,10.1273569,76.7545867,238,11-04-2017,"Thattekad Bird Sanctuary--Urulanthanni, Idukki County",Kerala,91
12,Ducula,cuprea,Malabar Imperial Pigeon,10.1273569,76.7545867,312,11-04-2017,"Thattekad Bird Sanctuary--Urulanthanni, Idukki County",Kerala,91
13,Ducula,cuprea,Malabar Imperial Pigeon,11.3362,76.1102,650,19-03-2017,"Kakkadampoyil, Malappuram",Kerala,63
14,Prinia,lepida,Delicate Prinia,27.2575,70.892,170,14-01-2016,"Desert National Park, Thar Desert, near Jaisalmer",Rajasthan,135
15,Ducula,cuprea,Malabar Imperial Pigeon,15.2514,74.2411,380,23-11-2014,Zuna Patiem Sanguem South Goa District,Goa,46
16,Ducula,cuprea,Malabar Imperial Pigeon,15.4411,74.2544,140,17-04-2014,"Bhagwan Mahaveer Sanctuary And Mollem National Park (near  Mollem), South Goa",Goa,46
17,Ducula,cuprea,Malabar Imperial Pigeon,15.5928,74.2334,170,23-03-2014,Vainguinim Satari North Goa District,Goa,46
18,Prinia,lepida,Delicate Prinia,26.2539,91.9132,50,26-01-2019,"Burha Mayang Par, Kamrup",Assam,151
19,Ducula,cuprea,Malabar Imperial Pigeon,11.3362,76.1102,650,19-03-2017,"Kakkadampoyil, Malappuram",Kerala,63
20,Ducula,cuprea,Malabar Imperial Pigeon,15.2687,74.5375,500,07-05-2014,"Badgund, Uttara Kannada",Karnataka,64
21,Prinia,lepida,Delicate Prinia,23.4744,87.3064,60,16-07-2017,"Durgapur Barrage Birding Hotspot, Durgapur",West Bengal,172
22,Prinia,lepida,Delicate Prinia,23.4744,87.3064,60,16-07-2017,"Durgapur Barrage Birding Hotspot, Durgapur",West Bengal,172
23,Dendrocygna,bicolor,Fulvous Whistling Duck,12.8375,80.0775,30,06-02-2022,"Guduvancheri, Kanchipuram",Tamil Nadu,5
24,Dendrocygna,bicolor,Fulvous Whistling Duck,12.8375,80.0775,30,06-02-2022,"Guduvancheri, Kanchipuram",Tamil Nadu,5
25,Dendrocygna,bicolor,Fulvous Whistling Duck,12.9011,80.2199,0,27-08-2017,"OMR - Medavakkam Toll Gate (near  Chennai), Kanchipuram",Tamil Nadu,67
26,Dendrocygna,javanica,Lesser Whistling Duck,11.6612,92.6566,0,14-12-2022,Ograbraj (near  Hobdipur RV),Andaman and Nicobar Islands,63
27,Dendrocygna,javanica,Lesser Whistling Duck,11.63,92.67,39,23-04-2017,"Near Chouldari, South Andaman County",Andaman and Nicobar Islands,63
28,Dendrocygna,javanica,Lesser Whistling Duck,11.63,92.67,31,23-04-2017,"Near Chouldari, South Andaman County",Andaman and Nicobar Islands,63
29,Dendrocygna,javanica,Lesser Whistling Duck,15.5966,73.8729,20,18-05-2014,"Goncoi, Aldona,Bardez",Goa,46
30,Dendrocygna,javanica,Lesser Whistling Duck,11.6612,92.6566,0,14-12-2022,Ograbraj (near  Hobdipur RV),Andaman and Nicobar Islands,63
31,Dendrocygna,javanica,Lesser Whistling Duck,11.6612,92.6566,0,14-12-2022,Ograbraj (near  Hobdipur RV),Andaman and Nicobar Islands,63
32,Dendrocygna,javanica,Lesser Whistling Duck,27.1593,77.5232,35,06-04-2019,"Keoladeo National Park, Bharatpur",Rajasthan,124
33,Dendrocygna,javanica,Lesser Whistling Duck,27.1593,77.5232,43,06-04-2019,"Keoladeo National Park, Bharatpur",Rajasthan,124
34,Dendrocygna,javanica,Lesser Whistling Duck,9.3223,76.7047,10,01-10-2017,"Mallapuzhassery, Pathanamthitta",Kerala,172
35,Dendrocygna,javanica,Lesser Whistling Duck,27.166,77.5245,180,21-12-2016,"Shreenagar Rural, Bharatpur",Rajasthan,124
36,Dendrocygna,javanica,Lesser Whistling Duck,10.1691,76.4396,10,29-08-2015,"Kalady, Ernakulam",Kerala,91
37,Dendrocygna,javanica,Lesser Whistling Duck,15.2961,74.0377,10,14-12-2014,"Maitollem Lake, South Goa",Goa,46
38,Dendrocygna,javanica,Lesser Whistling Duck,21.576,71.323,10,04-10-2011,Saldi Lilia Taluka Amreli District,Gujarat,118
39,Dendrocygna,javanica,Lesser Whistling Duck,15.489,73.929,6,09-01-2010,Carambolim Lake,Goa,46
40,Dendrocygna,javanica,Lesser Whistling Duck,19.4605,72.7932,0,01-07-2021,"Virar, Thane",Maharashtra,93
41,Dendrocygna,javanica,Lesser Whistling Duck,10.1691,76.4396,10,29-08-2015,"Kalady, Ernakulam",Kerala,91
42,Dendrocygna,javanica,Lesser Whistling Duck,21.0623,76.0622,220,24-12-2021,"Khamkhede, Jalgaon",Maharashtra,64
43,Dendrocygna,javanica,Lesser Whistling Duck,20.8935,77.7745,360,04-04-2014,"Chhatri Lake, Amravati",Maharashtra,161
44,Dendrocygna,javanica,Lesser Whistling Duck,15.489,73.929,0,16-12-2014,Carambolim Lake,Goa,46
45,Anser,indicus,Bar-headed Goose,32.0439,76.0654,420,10-09-2021,"Pong Dam-Nagrota Surian, Kangra",Himachal Pradesh,75
46,Anser,indicus,Bar-headed Goose,26.6667,93.3501,90,25-01-2015,Kaziranga National Park,Assam,53
47,Anser,indicus,Bar-headed Goose,27.8098,74.4602,300,13-01-2014,Northeast of Tal Chappar,Rajasthan,138
48,Anser,indicus,Bar-headed Goose,26.6667,93.3501,90,09-03-2017,Kaziranga National Park,Assam,53
49,Anser,indicus,Bar-headed Goose,27.1593,77.5232,170,19-02-2019,"Keoladeo National Park, Bharatpur",Rajasthan,124
50,Anser,indicus,Bar-headed Goose,24.5933,74.1126,480,15-02-2018,"Menar, Udaipur",Rajasthan,147
51,Anser,indicus,Bar-headed Goose,24.5933,74.1126,480,15-02-2018,"Menar, Udaipur",Rajasthan,147
52,Anser,indicus,Bar-headed Goose,26.6804,93.5596,90,24-11-2012,"Kaziranga National Park, Sohola Beel",Assam,53
53,Anser,indicus,Bar-headed Goose,26.6804,93.5596,90,24-11-2012,"Kaziranga National Park, Sohola Beel",Assam,53
54,Anser,indicus,Bar-headed Goose,27.1593,77.5232,170,19-02-2019,"Keoladeo National Park, Bharatpur",Rajasthan,124
55,Anser,indicus,Bar-headed Goose,21.6408,71.1557,130,04-12-2013,"Bhandariya Nana, Amreli",Gujarat,118
56,Anser,indicus,Bar-headed Goose,31.1634,75.0027,200,21-12-2012,Harike,Punjab,142
57,Anser,anser,Greylag Goose,23.3194,71.8461,30,25-02-2012,SH18 Dasada Dasada Taluka Surendranagar District,Gujarat,137
58,Anser,anser,Greylag Goose,26.6667,93.3501,90,24-01-2015,Kaziranga National Park,Assam,53
59,Anser,anser,Greylag Goose,27.1545,77.5232,180,12-02-2016,"Shreenagar Rural, Bharatpur",Rajasthan,124
60,Anser,anser,Greylag Goose,28.464,76.893,220,20-01-2013,Sultanpur National Park SH15A Farrukhnagar Gurugram District,Haryana,190
61,Anser,anser,Greylag Goose,26.6804,93.5596,70,25-11-2012,"Kaziranga National Park, Sohola Beel",Assam,53
62,Anser,anser,Greylag Goose,26.6804,93.5596,70,25-11-2012,"Kaziranga National Park, Sohola Beel",Assam,53
63,Anser,anser,Greylag Goose,26.6804,93.5596,70,25-11-2012,"Kaziranga National Park, Sohola Beel",Assam,53
64,Anser,anser,Greylag Goose,26.6804,93.5596,70,25-11-2012,"Kaziranga National Park, Sohola Beel",Assam,53
65,Anser,anser,Greylag Goose,23.6888,87.6669,50,17-01-2016,"Kabi Mohanpur, Birbhum",West Bengal,172
66,Anser,anser,Greylag Goose,23.131,71.775,70,30-12-2011,Patdi Dasada Taluka Surendranagar District,Gujarat,137
67,Anser,anser,Greylag Goose,27.1569,77.5237,180,09-01-2014,"Keoladeo National Park (near  Shreenagar Rural), Bharatpur",Rajasthan,124
68,Anser,anser,Greylag Goose,27.1569,77.5237,180,09-01-2014,"Keoladeo National Park (near  Shreenagar Rural), Bharatpur",Rajasthan,124
69,Anser,albifrons,Greater White-fronted Goose,23.2594,69.5143,130,19-01-2014,"Makhana, Kutch",Gujarat,137
70,Sarkidiornis,melanotos,Knob-billed Duck,21.5859,71.317,110,05-10-2013,Saldi Lilia Taluka Amreli District,Gujarat,118
71,Tadorna,tadorna,Common Shelduck,26.8542,88.5591,150,05-03-2016,Gajaldoba,West Bengal,121
72,Tadorna,ferruginea,Ruddy Shelduck,15.4779,73.9314,0,01-12-2014,"Dhado-Carambolim, North Goa",Goa,46
73,Tadorna,ferruginea,Ruddy Shelduck,21.589,71.314,138,07-11-2011,Saldi Lilia Taluka Amreli District,Gujarat,118
74,Tadorna,ferruginea,Ruddy Shelduck,23.4618,71.2874,0,28-02-2007,"Nawatalao lake, Kutch",Gujarat,137
75,Tadorna,ferruginea,Ruddy Shelduck,27.1593,77.5232,202,06-04-2019,"Keoladeo National Park, Bharatpur",Rajasthan,124
76,Tadorna,ferruginea,Ruddy Shelduck,27.1593,77.5232,193,06-04-2019,"Keoladeo National Park, Bharatpur",Rajasthan,124
77,Tadorna,ferruginea,Ruddy Shelduck,21.0576,75.8398,190,04-03-2017,"Pimprisekam, Jalgaon",Maharashtra,64
78,Tadorna,ferruginea,Ruddy Shelduck,19.9165,85.4272,10,02-12-2016,"Mangalajodi, Khordha",Odisha,162
79,Tadorna,ferruginea,Ruddy Shelduck,23.2378,69.6671,110,18-01-2016,"Bhuj, Kutch",Gujarat,137
80,Tadorna,ferruginea,Ruddy Shelduck,15.489,73.929,0,0213-12-02,Carambolim Lake,Goa,46
81,Tadorna,ferruginea,Ruddy Shelduck,26.9239,92.8812,190,27-11-2012,Nameri National Park,Assam,53
82,Tadorna,ferruginea,Ruddy Shelduck,26.6804,93.5596,70,24-11-2012,"Kaziranga National Park, Sohola Beel",Assam,53
83,Tadorna,ferruginea,Ruddy Shelduck,18.5054,74.0006,550,19-01-2011,"Kavadi Pat, Pune",Maharashtra,87
84,Tadorna,ferruginea,Ruddy Shelduck,18.5054,74.0006,550,19-01-2011,"Kavadi Pat, Pune",Maharashtra,87
85,Tadorna,ferruginea,Ruddy Shelduck,18.5054,74.0006,550,19-01-2011,"Kavadi Pat, Pune",Maharashtra,87
86,Tadorna,ferruginea,Ruddy Shelduck,21.0596,75.8367,190,04-03-2017,Dujkheda Yawal Jalgaon District,Maharashtra,64
87,Tadorna,ferruginea,Ruddy Shelduck,21.0576,75.8398,200,04-03-2017,"Pimprisekam, Jalgaon",Maharashtra,64
88,Tadorna,ferruginea,Ruddy Shelduck,21.0576,75.8398,190,04-03-2017,"Pimprisekam, Jalgaon",Maharashtra,64
89,Tadorna,ferruginea,Ruddy Shelduck,23.4744,87.3064,60,03-01-2015,"Durgapur Barrage Birding Hotspot, Durgapur",West Bengal,172
90,Tadorna,ferruginea,Ruddy Shelduck,19.9051,85.4365,0,23-01-2012,"Mangalajodi, Khordha",Odisha,162
92,Tadorna,ferruginea,Ruddy Shelduck,21.0658,75.8402,200,04-03-2017,Dujkheda Yawal Jalgaon District,Maharashtra,64
93,Nettapus,coromandelianus,Cotton Pygmy Goose,15.2961,74.0377,10,14-12-2014,"Maitollem Lake, South Goa",Goa,46
94,Nettapus,coromandelianus,Cotton Pygmy Goose,15.3414,73.9419,10,15-02-2016,"Ambulor Lake, South Goa",Goa,46
95,Spatula,querquedula,Garganey,13.1109,77.5953,80,10-04-2019,Yelahanka Kere,Karnataka,73
96,Spatula,querquedula,Garganey,27.1593,77.5232,170,19-02-2019,"Keoladeo National Park, Bharatpur",Rajasthan,124
97,Spatula,querquedula,Garganey,27.1593,77.5232,99,06-04-2019,"Keoladeo National Park, Bharatpur",Rajasthan,124
98,Spatula,querquedula,Garganey,15.2708,74.0193,10,09-02-2017,"Salcete (near  Curtorim), South Goa",Goa,46
99,Spatula,querquedula,Garganey,21.578,71.314,200,07-11-2011,Saldi Lilia Taluka Amreli District,Gujarat,118
100,Spatula,clypeata,Northern Shoveler,15.4491,73.8935,10,26-11-2016,"Batim lake, North Goa",Goa,46
101,Spatula,clypeata,Northern Shoveler,21.576,71.321,70,12-11-2011,Saldi Lilia Taluka Amreli District,Gujarat,118
102,Spatula,clypeata,Northern Shoveler,27.1593,77.5232,170,19-02-2019,"Keoladeo National Park, Bharatpur",Rajasthan,124
103,Mareca,strepera,Gadwall,26.6804,93.5596,70,25-11-2012,"Kaziranga National Park, Sohola Beel",Assam,53
104,Mareca,strepera,Gadwall,26.6804,93.5596,70,25-11-2012,"Kaziranga National Park, Sohola Beel",Assam,53
105,Mareca,strepera,Gadwall,21.575,71.322,0,08-11-2011,Saldi Lilia Taluka Amreli District,Gujarat,118
106,Mareca,penelope,Eurasian Wigeon,27.5755,95.3955,120,13-01-2020,"Maguri bill,Tinsukia",Assam,89
107,Mareca,penelope,Eurasian Wigeon,26.6804,93.5596,70,25-11-2012,"Kaziranga National Park, Sohola Beel",Assam,53
108,Mareca,penelope,Eurasian Wigeon,21.578,71.314,200,07-11-2011,Saldi Lilia Taluka Amreli District,Gujarat,118
109,Anas,poecilorhyncha,Indian Spot-billed Duck,12.8705,80.1823,10,03-08-2020,"Chennai, Kanchipuram",Tamil Nadu,66
110,Anas,poecilorhyncha,Indian Spot-billed Duck,12.8705,80.1823,10,03-08-2020,"Chennai, Kanchipuram",Tamil Nadu,66
111,Anas,poecilorhyncha,Indian Spot-billed Duck,18.7221,73.9031,600,03-08-2011,"Bhose, Pune",Maharashtra,106
112,Anas,poecilorhyncha,Indian Spot-billed Duck,27.1855,77.5066,180,12-02-1986,"Jatoli Ghana, Bharatpur",Rajasthan,120
113,Anas,poecilorhyncha,Indian Spot-billed Duck,12.8705,80.1823,10,03-08-2020,"Chennai, Kanchipuram",Tamil Nadu,66
114,Anas,poecilorhyncha,Indian Spot-billed Duck,30.2864,77.9744,113,12-04-2019,Wildlife Institute of India Campus--Nature Trail,Uttarakhand,175
115,Anas,poecilorhyncha,Indian Spot-billed Duck,30.2864,77.9744,202,12-04-2019,Wildlife Institute of India Campus--Nature Trail,Uttarakhand,175
116,Anas,poecilorhyncha,Indian Spot-billed Duck,30.2864,77.9744,208,12-04-2019,Wildlife Institute of India Campus--Nature Trail,Uttarakhand,175
117,Anas,poecilorhyncha,Indian Spot-billed Duck,30.2864,77.9744,206,12-04-2019,Wildlife Institute of India Campus--Nature Trail,Uttarakhand,175
118,Anas,poecilorhyncha,Indian Spot-billed Duck,30.2864,77.9744,188,12-04-2019,Wildlife Institute of India Campus--Nature Trail,Uttarakhand,175
119,Anas,poecilorhyncha,Indian Spot-billed Duck,30.2864,77.9744,201,12-04-2019,Wildlife Institute of India Campus--Nature Trail,Uttarakhand,175
120,Anas,poecilorhyncha,Indian Spot-billed Duck,30.286,77.9741,600,13-04-2019,"WII Nature trail pond, Dehradun",Uttarakhand,175
121,Anas,poecilorhyncha,Indian Spot-billed Duck,27.1593,77.5232,170,19-02-2019,"Keoladeo National Park, Bharatpur",Rajasthan,124
122,Anas,poecilorhyncha,Indian Spot-billed Duck,12.836,80.0342,40,17-09-2017,Kanchipuram,Tamil Nadu,5
123,Anas,poecilorhyncha,Indian Spot-billed Duck,18.5344,73.7853,600,16-09-2014,"Pune, Pune",Maharashtra,87
124,Anas,poecilorhyncha,Indian Spot-billed Duck,21.1429,78.8647,340,25-01-2014,"Vena Reservoir, Rohana, Nagpur",Maharashtra,161
125,Anas,poecilorhyncha,Indian Spot-billed Duck,18.5937,75.3052,550,16-09-2012,Nannaj,Maharashtra,107
126,Anas,poecilorhyncha,Indian Spot-billed Duck,12.869,80.1851,0,20-10-2019,"Chennai, Kanchipuram",Tamil Nadu,66
127,Anas,poecilorhyncha,Indian Spot-billed Duck,12.869,80.1851,0,20-10-2019,"Chennai, Kanchipuram",Tamil Nadu,66
128,Anas,poecilorhyncha,Indian Spot-billed Duck,27.1593,77.5232,177,06-04-2019,"Keoladeo National Park, Bharatpur",Rajasthan,124
129,Anas,poecilorhyncha,Indian Spot-billed Duck,30.286,77.9741,600,13-04-2019,"WII Nature trail pond, Dehradun",Uttarakhand,175
131,Anas,poecilorhyncha,Indian Spot-billed Duck,21.575,71.322,183,04-12-2011,Saldi Lilia Taluka Amreli District,Gujarat,118
132,Anas,poecilorhyncha,Indian Spot-billed Duck,27.1593,77.5232,181,06-04-2019,"Keoladeo National Park, Bharatpur",Rajasthan,124
133,Anas,poecilorhyncha,Indian Spot-billed Duck,12.9912,80.2363,10,08-01-2019,"IIT Madras, Chennai",Tamil Nadu,54
134,Anas,poecilorhyncha,Indian Spot-billed Duck,21.0576,75.8398,190,04-03-2017,"Pimprisekam, Jalgaon",Maharashtra,64
135,Anas,platyrhynchos,Mallard,21.599,71.2055,110,11-02-2013,"Amreli, Amreli",Gujarat,118
136,Anas,acuta,Northern Pintail,21.575,71.323,6,10-11-2011,Saldi Lilia Taluka Amreli District,Gujarat,118
137,Anas,acuta,Northern Pintail,15.3414,73.9419,10,15-02-2016,"Ambulor Lake, South Goa",Goa,46
146,Mergus,merganser,Common Merganser,32.9112,78.3159,4500,19-08-2013,Lake Tso Moriri,Ladakh,46
149,Arborophila,torqueola,Hill Partridge,30.3865,79.1013,2400,14-04-2023,"Rudraprayag (near  Malkhi), Garhwal Division",Uttarakhand,175
150,Arborophila,torqueola,Hill Partridge,27.1567,92.4606,2350,02-03-2017,"Lama Camp, near Eaglenest WLS",Arunachal Pradesh,151
151,Arborophila,torqueola,Hill Partridge,30.4789,79.2111,2470,10-07-2019,Sau Kharak,Uttarakhand,175
152,Arborophila,torqueola,Hill Partridge,30.48,79.2,2019,18-04-2019,"Chopta, Kedarnath NP",Uttarakhand,175
153,Arborophila,torqueola,Hill Partridge,30.48,79.2,1822,18-04-2019,"Chopta, Kedarnath NP",Uttarakhand,175
154,Arborophila,torqueola,Hill Partridge,28.2334,95.9167,2400,23-11-2015,Mayodia Pass,Arunachal Pradesh,89
155,Arborophila,torqueola,Hill Partridge,31.1053,77.2399,2500,01-05-2015,Shimla,Himachal Pradesh,99
156,Arborophila,torqueola,Hill Partridge,27.1001,92.4001,1400,05-04-2013,Rupa SDO West Kameng District,Arunachal Pradesh,151
157,Arborophila,torqueola,Hill Partridge,27.1001,92.4001,2800,22-04-2011,Eaglenest Wildlife Sanctuary,Arunachal Pradesh,151
158,Arborophila,torqueola,Hill Partridge,27.1001,92.4001,2800,22-04-2011,Eaglenest Wildlife Sanctuary,Arunachal Pradesh,151
159,Arborophila,torqueola,Hill Partridge,27.1001,92.4001,2500,07-12-2010,Eaglenest Wildlife Sanctuary,Arunachal Pradesh,151
160,Arborophila,torqueola,Hill Partridge,27.1001,92.4001,2800,17-04-2011,Eaglenest Wildlife Sanctuary,Arunachal Pradesh,151
161,Arborophila,torqueola,Hill Partridge,28.6333495,94.9747467,1509,24-03-2006,Yingkiong,Arunachal Pradesh,89
162,Arborophila,torqueola,Hill Partridge,27.1567,92.4606,2400,02-03-2017,Eaglenest road Aloo Baari Ramalingram Singchung ADC West Kameng District,Arunachal Pradesh,151
163,Arborophila,torqueola,Hill Partridge,30.4589,78.0232,2396,17-04-2019,George Everest,Uttarakhand,175
164,Arborophila,torqueola,Hill Partridge,27.1567,92.4606,2400,24-03-2019,"Lama Camp, near Eaglenest WLS",Arunachal Pradesh,151
165,Arborophila,torqueola,Hill Partridge,30.48,79.2,1861,18-04-2019,"Chopta, Kedarnath NP",Uttarakhand,175
166,Arborophila,torqueola,Hill Partridge,27.1253,92.4553,2800,23-04-2019,"Eaglenest Pass, Eaglenest WLS",Arunachal Pradesh,151
167,Arborophila,torqueola,Hill Partridge,30.4784,79.1406,1600,12-04-2018,"Makku Math, Rudraprayag",Uttarakhand,175
168,Arborophila,torqueola,Hill Partridge,30.4776,79.211,2900,18-03-2018,"Mud Hut, Chopta/Chamoli",Uttarakhand,175
169,Arborophila,torqueola,Hill Partridge,29.946,79.1228,2000,27-07-2017,"Uliyani, Pauri Garhwal",Uttarakhand,175
170,Arborophila,torqueola,Hill Partridge,29.485,79.354,2300,08-04-2016,Kunjakharak Road Maniya Binayak Nainital Nainital District,Uttarakhand,141
171,Arborophila,torqueola,Hill Partridge,29.443,79.418,2200,05-04-2016,Kunjakharak Road Maniya Binayak Kosya Kutauli Nainital District,Uttarakhand,141
173,Arborophila,torqueola,Hill Partridge,29.426,79.436,2000,16-05-2012,Kunjakharak Road Maniya Binayak Kosya Kutauli Nainital District,Uttarakhand,141
174,Arborophila,torqueola,Hill Partridge,27.1001,92.4001,2550,18-04-2011,Eaglenest Wildlife Sanctuary,Arunachal Pradesh,151
175,Arborophila,torqueola,Hill Partridge,27.1001,92.4001,2800,22-04-2011,Eaglenest Wildlife Sanctuary,Arunachal Pradesh,151
176,Arborophila,torqueola,Hill Partridge,27.1001,92.4001,2800,22-04-2011,Eaglenest Wildlife Sanctuary,Arunachal Pradesh,151
177,Arborophila,torqueola,Hill Partridge,27.1001,92.4001,2800,22-04-2011,Eaglenest Wildlife Sanctuary,Arunachal Pradesh,151
178,Arborophila,torqueola,Hill Partridge,30.4525,78.1545,2100,07-05-2023,Mussoori Road masrana Dehradun Dehradun District,Uttarakhand,175
179,Arborophila,torqueola,Hill Partridge,29.388,79.4392,2000,16-02-2023,"Nainital (near  Naina Range), Kumaon Division",Uttarakhand,141
180,Arborophila,torqueola,Hill Partridge,27.11667,92.43333,1501,03-04-2018,Eaglenest road Aloo Baari Ramalingram Singchung ADC West Kameng District,Arunachal Pradesh,151
181,Arborophila,torqueola,Hill Partridge,29.348,79.529,1300,23-09-2015,Sattal-Bhimtal Road Suriyagaon Sattal Nainital Nainital District,Uttarakhand,56
182,Arborophila,torqueola,Hill Partridge,29.3436,79.4835,1300,19-10-2016,"Jeolikote, Nainital",Uttarakhand,56
183,Arborophila,torqueola,Hill Partridge,29.423,79.426,2200,03-03-2011,"Jungle Lore Birding Lodge, Pangot",Uttarakhand,141
184,Arborophila,torqueola,Hill Partridge,26.9172,88.3898,1700,05-03-2020,"latpanchar, Darjeeling",West Bengal,121
185,Arborophila,mandellii,Chestnut-breasted Partridge,27.066,92.4064,1900,04-03-2017,"Bompu Camp, Eaglenest",Arunachal Pradesh,151
186,Arborophila,mandellii,Chestnut-breasted Partridge,27.066,92.4064,1900,04-03-2017,"Bompu Camp, Eaglenest",Arunachal Pradesh,151
187,Arborophila,mandellii,Chestnut-breasted Partridge,27.1567,92.4606,2400,19-03-2019,"Lama Camp, near Eaglenest WLS",Arunachal Pradesh,151
188,Arborophila,mandellii,Chestnut-breasted Partridge,27.1001,92.4001,1700,21-04-2011,Eaglenest Wildlife Sanctuary,Arunachal Pradesh,151
189,Arborophila,mandellii,Chestnut-breasted Partridge,27.11667,92.43333,787,15-02-2009,Bompu,Arunachal Pradesh,151
190,Arborophila,mandellii,Chestnut-breasted Partridge,28.2278,95.8778,1508,17-03-2006,Dibang Valley,Arunachal Pradesh,89
191,Arborophila,mandellii,Chestnut-breasted Partridge,27.066,92.4064,1900,04-03-2017,"Bompu Camp, Eaglenest",Arunachal Pradesh,151
192,Arborophila,mandellii,Chestnut-breasted Partridge,27.1567,92.4606,896,29-03-2018,Eaglenest road Aloo Baari Ramalingram Singchung ADC West Kameng District,Arunachal Pradesh,151
193,Arborophila,mandellii,Chestnut-breasted Partridge,27.1567,92.4606,1155,29-03-2018,Eaglenest road Aloo Baari Ramalingram Singchung ADC West Kameng District,Arunachal Pradesh,151
194,Arborophila,mandellii,Chestnut-breasted Partridge,27.1001,92.4001,1800,21-04-2011,Eaglenest Wildlife Sanctuary,Arunachal Pradesh,151
195,Arborophila,mandellii,Chestnut-breasted Partridge,27.1001,92.4001,2200,07-04-2006,Eaglenest Wildlife Sanctuary,Arunachal Pradesh,151
196,Arborophila,mandellii,Chestnut-breasted Partridge,28.2407,95.8663,1800,07-04-2019,"Mid Elevation, Mishmi Hills",Arunachal Pradesh,89
197,Arborophila,mandellii,Chestnut-breasted Partridge,28.6333495,94.9747467,1423,17-03-2006,Yingkiong,Arunachal Pradesh,89
198,Arborophila,rufogularis,Rufous-throated Partridge,27.1001,92.4001,1300,19-04-2011,Eaglenest Wildlife Sanctuary,Arunachal Pradesh,151
199,Arborophila,rufogularis,Rufous-throated Partridge,25.6501,94.0334,603,25-12-2005,Khonoma Village,Nagaland,155
200,Arborophila,rufogularis,Rufous-throated Partridge,25.5719,93.8576,1900,07-11-2018,"Benreu, Peren",Nagaland,155
201,Arborophila,rufogularis,Rufous-throated Partridge,27.0223,92.4139,881,02-04-2018,Eaglenest road Khellong Kamengbari Doimara Circle West Kameng District,Arunachal Pradesh,151
202,Arborophila,rufogularis,Rufous-throated Partridge,27.0223,92.4139,1082,02-04-2018,Eaglenest road Khellong Kamengbari Doimara Circle West Kameng District,Arunachal Pradesh,151
203,Arborophila,rufogularis,Rufous-throated Partridge,27.0223,92.4139,950,02-04-2018,Eaglenest road Khellong Kamengbari Doimara Circle West Kameng District,Arunachal Pradesh,151
204,Arborophila,rufogularis,Rufous-throated Partridge,29.443,79.418,2200,05-04-2016,Kunjakharak Road Maniya Binayak Kosya Kutauli Nainital District,Uttarakhand,141
205,Arborophila,rufogularis,Rufous-throated Partridge,27.1001,92.4001,1800,28-04-2013,Eaglenest Wildlife Sanctuary,Arunachal Pradesh,151
206,Arborophila,rufogularis,Rufous-throated Partridge,27.1001,92.4001,1300,19-04-2011,Eaglenest Wildlife Sanctuary,Arunachal Pradesh,151
207,Arborophila,rufogularis,Rufous-throated Partridge,27.047,92.419,1250,04-03-2017,"Sessni Camp, Eaglenest",Arunachal Pradesh,151
208,Arborophila,rufogularis,Rufous-throated Partridge,29.3524,79.5283,1300,18-05-2013,"Sattal, Nainital",Uttarakhand,56
209,Arborophila,rufogularis,Rufous-throated Partridge,27.1001,92.4001,1300,21-04-2011,Eaglenest Wildlife Sanctuary,Arunachal Pradesh,151
210,Arborophila,rufogularis,Rufous-throated Partridge,27.11667,92.43333,752,16-02-2009,Bompu,Arunachal Pradesh,151
211,Arborophila,rufogularis,Rufous-throated Partridge,28.6333495,94.9747467,1179,22-03-2006,Yingkiong,Arunachal Pradesh,89
212,Arborophila,atrogularis,White-cheeked Partridge,26.672638,91.004331,342,08-04-2018,Manas National Park,Assam,118
213,Arborophila,atrogularis,White-cheeked Partridge,27.3806,95.6306,180,05-04-2013,Digboi Oilfields,Assam,89
214,Arborophila,atrogularis,White-cheeked Partridge,27.3806,95.6306,180,05-04-2013,Digboi Oilfields,Assam,89
215,Arborophila,atrogularis,White-cheeked Partridge,27.3806,95.6306,180,05-04-2013,Digboi Oilfields,Assam,89
216,Arborophila,atrogularis,White-cheeked Partridge,26.0967,91.7036,100,29-01-2023,"Garbhanga Forest (near  Guwahati), Kamrup Metropolitan",Assam,118
217,Arborophila,atrogularis,White-cheeked Partridge,26.672638,91.004331,257,08-04-2018,Manas National Park,Assam,118
218,Arborophila,atrogularis,White-cheeked Partridge,26.6708,91.0019,60,23-05-2018,"Manas National Park,Baksa",Assam,118
219,Arborophila,atrogularis,White-cheeked Partridge,26.6708,91.0019,60,23-05-2018,"Manas National Park,Baksa",Assam,118
220,Arborophila,atrogularis,White-cheeked Partridge,27.3806,95.6306,180,05-04-2013,Digboi Oilfields,Assam,89
221,Arborophila,atrogularis,White-cheeked Partridge,27.6397,96.6248,3200,15-01-2003,Wakro Circle Lohit District,Arunachal Pradesh,89
222,Arborophila,atrogularis,White-cheeked Partridge,27.63974,96.624756,400,2011-10-00,Wakro Circle Lohit District,Arunachal Pradesh,89
223,Arborophila,atrogularis,White-cheeked Partridge,26.9498,92.7053,444,01-08-2007,Nameri National Park,Assam,53
224,Arborophila,atrogularis,White-cheeked Partridge,26.672638,91.004331,355,08-04-2018,Manas National Park,Assam,118
226,Lerwa,lerwa,Snow Partridge,27.4928,92.1074,3800,28-02-2017,Senge Dirang ADC West Kameng District,Arunachal Pradesh,151
227,Lerwa,lerwa,Snow Partridge,27.492778,92.107358,2432,04-04-2018,Senge Dirang ADC West Kameng District,Arunachal Pradesh,151
228,Lerwa,lerwa,Snow Partridge,27.492778,92.107358,1991,04-04-2018,Senge Dirang ADC West Kameng District,Arunachal Pradesh,151
229,Lerwa,lerwa,Snow Partridge,27.4928,92.1074,3800,28-02-2017,Senge Dirang ADC West Kameng District,Arunachal Pradesh,151
230,Lerwa,lerwa,Snow Partridge,27.4928,92.1074,3800,28-02-2017,Senge Dirang ADC West Kameng District,Arunachal Pradesh,151
231,Lerwa,lerwa,Snow Partridge,27.492778,92.107358,2978,04-04-2018,Senge Dirang ADC West Kameng District,Arunachal Pradesh,151
232,Lerwa,lerwa,Snow Partridge,27.503,92.104,4200,16-12-2010,Senge Dirang ADC West Kameng District,Arunachal Pradesh,151
233,Lerwa,lerwa,Snow Partridge,27.4928,92.1074,3800,28-02-2017,Senge Dirang ADC West Kameng District,Arunachal Pradesh,151
234,Lerwa,lerwa,Snow Partridge,30.4897,79.223,3500,24-05-2013,"Tungnath, Chamoli",Uttarakhand,175
239,Tragopan,melanocephalus,Western Tragopan,31.4084,77.8393,2400,05-05-2016,Shimla,Himachal Pradesh,99
240,Tragopan,melanocephalus,Western Tragopan,31.52,77.8,2200,26-04-2012,"Sarahan, Shimla",Himachal Pradesh,99
241,Tragopan,melanocephalus,Western Tragopan,31.52,77.8,2200,02-05-2012,"Sarahan, Shimla",Himachal Pradesh,99
242,Tragopan,satyra,Satyr Tragopan,28.6333495,94.9747467,2500,25-03-2006,Yingkiong,Arunachal Pradesh,89
243,Tragopan,satyra,Satyr Tragopan,27.0467,88.0423,2719,29-03-2011,Darjeeling Pulbazar Darjeeling District,West Bengal,121
244,Tragopan,blythii,Blyth's Tragopan,27.0757,92.407,2465,05-01-2016,"Sundarview, Eaglenest Wildlife Sanctuary",Arunachal Pradesh,151
245,Tragopan,blythii,Blyth's Tragopan,28.2311,95.8988,2400,10-04-2013,"Mishmi Hills, below  Muyudia hotel, 2000-2400m",Arunachal Pradesh,89
246,Tragopan,blythii,Blyth's Tragopan,27.1001,92.4001,2200,25-04-2012,Eaglenest Wildlife Sanctuary,Arunachal Pradesh,151
247,Tragopan,blythii,Blyth's Tragopan,27.1001,92.4001,2320,24-03-2011,Eaglenest Wildlife Sanctuary,Arunachal Pradesh,151
248,Tragopan,blythii,Blyth's Tragopan,28.2334,95.9167,2500,18-03-2006,Mayodia Pass,Arunachal Pradesh,89
249,Tragopan,blythii,Blyth's Tragopan,25.5719,93.8576,1900,07-11-2018,"Benreu, Peren",Nagaland,155
250,Tragopan,blythii,Blyth's Tragopan,27.11667,92.43333,2706,01-04-2018,Eaglenest road Aloo Baari Ramalingram Singchung ADC West Kameng District,Arunachal Pradesh,151
251,Tragopan,blythii,Blyth's Tragopan,28.2311,95.8988,2400,09-04-2013,"Mishmi Hills, below  Muyudia hotel, 2000-2400m",Arunachal Pradesh,89
252,Tragopan,blythii,Blyth's Tragopan,27.1001,92.4001,2200,25-04-2012,Eaglenest Wildlife Sanctuary,Arunachal Pradesh,151
253,Tragopan,blythii,Blyth's Tragopan,27.0663,92.4063,2000,06-03-2017,Eaglenest road Aloo Baari Ramalingram Singchung ADC West Kameng District,Arunachal Pradesh,151
254,Tragopan,blythii,Blyth's Tragopan,27.066,92.4064,1900,24-04-2019,"Bompu Camp, Eaglenest",Arunachal Pradesh,151
255,Tragopan,blythii,Blyth's Tragopan,25.5719,93.8576,1900,07-11-2018,"Benreu, Peren",Nagaland,155
256,Tragopan,blythii,Blyth's Tragopan,27.0663,92.4063,2000,06-03-2017,Eaglenest road Aloo Baari Ramalingram Singchung ADC West Kameng District,Arunachal Pradesh,151
257,Tragopan,temminckii,Temminck's Tragopan,27.1001,92.4001,2700,26-04-2013,Eaglenest Wildlife Sanctuary,Arunachal Pradesh,151
258,Lophophorus,impejanus,Himalayan Monal,30.4882,79.2169,1628,21-04-2019,Tungnath,Uttarakhand,175
259,Lophophorus,impejanus,Himalayan Monal,30.4789,79.2111,949,21-04-2019,Sau Kharak,Uttarakhand,175
260,Lophophorus,impejanus,Himalayan Monal,30.4789,79.2111,1114,21-04-2019,Sau Kharak,Uttarakhand,175
261,Lophophorus,impejanus,Himalayan Monal,30.4804,79.2012,960,14-07-2019,"NH 107A, Chamoli IN-Uttarakhand (30.4804,79.2012)",Uttarakhand,175
262,Lophophorus,impejanus,Himalayan Monal,30.4804,79.2012,1513,14-07-2019,"NH 107A, Chamoli IN-Uttarakhand (30.4804,79.2012)",Uttarakhand,175
263,Lophophorus,impejanus,Himalayan Monal,30.4741,79.2183,2900,10-04-2018,"Bhulkan, Chamoli",Uttarakhand,175
264,Lophophorus,impejanus,Himalayan Monal,30.4741,79.2183,2900,30-04-2015,"Bhulkan, Chamoli",Uttarakhand,175
265,Lophophorus,impejanus,Himalayan Monal,31.52,77.8,2200,20-01-2013,"Sarahan, Shimla",Himachal Pradesh,99
266,Lophophorus,impejanus,Himalayan Monal,31.52,77.8,2200,25-03-2012,"Sarahan, Shimla",Himachal Pradesh,99
267,Lophophorus,impejanus,Himalayan Monal,31.52,77.8,2200,25-03-2012,"Sarahan, Shimla",Himachal Pradesh,99
268,Lophophorus,impejanus,Himalayan Monal,30.4789,79.2111,976,10-07-2019,Sau Kharak,Uttarakhand,175
269,Lophophorus,impejanus,Himalayan Monal,30.48,79.2,1458,18-04-2019,"Chopta, Kedarnath NP",Uttarakhand,175
270,Lophophorus,impejanus,Himalayan Monal,30.48,79.2,1768,18-04-2019,"Chopta, Kedarnath NP",Uttarakhand,175
271,Lophophorus,impejanus,Himalayan Monal,30.48,79.2,1225,18-04-2019,"Chopta, Kedarnath NP",Uttarakhand,175
272,Lophophorus,impejanus,Himalayan Monal,30.48,79.2,1138,18-04-2019,"Chopta, Kedarnath NP",Uttarakhand,175
273,Lophophorus,impejanus,Himalayan Monal,30.48,79.2,940,17-04-2019,"Chopta, Kedarnath NP",Uttarakhand,175
276,Lophophorus,impejanus,Himalayan Monal,31.6881,77.4837,3000,04-04-2003,Great Himalayan NP,Himachal Pradesh,99
277,Lophophorus,impejanus,Himalayan Monal,30.4897,79.223,3500,24-05-2013,"Tungnath, Chamoli",Uttarakhand,175
278,Lophophorus,impejanus,Himalayan Monal,30.48,79.2,1873,18-04-2019,"Chopta, Kedarnath NP",Uttarakhand,175
279,Lophophorus,impejanus,Himalayan Monal,27.4928,92.1074,4000,25-04-2019,Senge Dirang ADC West Kameng District,Arunachal Pradesh,151
280,Lophophorus,impejanus,Himalayan Monal,30.4741,79.2183,2900,10-04-2018,"Bhulkan, Chamoli",Uttarakhand,175
281,Lophophorus,impejanus,Himalayan Monal,30.4741,79.2183,2900,10-06-2017,"Bhulkan, Chamoli",Uttarakhand,175
282,Lophophorus,impejanus,Himalayan Monal,31.52,77.8,2200,14-06-2012,"Sarahan, Shimla",Himachal Pradesh,99
283,Lophophorus,impejanus,Himalayan Monal,31.7282,77.4921,3800,15-09-2012,Banjar Kullu District,Himachal Pradesh,99
284,Lophophorus,impejanus,Himalayan Monal,30.0767,80.2333,2550,26-02-2017,"Munsyari, Pithoragarh",Uttarakhand,74
285,Lophophorus,impejanus,Himalayan Monal,30.48,79.2,1652,18-04-2019,"Chopta, Kedarnath NP",Uttarakhand,175
286,Lophophorus,sclateri,Sclater's Monal,28.241,95.9271,2600,07-04-2013,Mishmi Hills nr Muyudia Pass,Arunachal Pradesh,89
287,Lophophorus,sclateri,Sclater's Monal,28.241,95.9271,2600,07-04-2013,Mishmi Hills nr Muyudia Pass,Arunachal Pradesh,89
288,Pucrasia,macrolopha,Koklass Pheasant,30.6335,79.2106,3400,20-04-2023,"Rudraprayag (near  Gaundhar), Garhwal Division",Uttarakhand,175
289,Pucrasia,macrolopha,Koklass Pheasant,30.4782,79.2106,2122,21-04-2019,Kanchula Kharak,Uttarakhand,175
290,Pucrasia,macrolopha,Koklass Pheasant,30.48,79.2,2009,18-04-2019,"Chopta, Kedarnath NP",Uttarakhand,175
291,Pucrasia,macrolopha,Koklass Pheasant,30.48,79.2,2365,18-04-2019,"Chopta, Kedarnath NP",Uttarakhand,175
292,Pucrasia,macrolopha,Koklass Pheasant,30.4741,79.2183,2900,10-04-2018,"Bhulkan, Chamoli",Uttarakhand,175
293,Pucrasia,macrolopha,Koklass Pheasant,30.4776,79.211,2900,18-03-2018,"Mud Hut, Chopta/Chamoli",Uttarakhand,175
294,Pucrasia,macrolopha,Koklass Pheasant,29.5032,79.3197,2500,08-04-2016,"Kunjkhadak, Almora",Uttarakhand,141
295,Pucrasia,macrolopha,Koklass Pheasant,31.52,77.8,2200,28-10-2016,"Sarahan, Shimla",Himachal Pradesh,99
296,Pucrasia,macrolopha,Koklass Pheasant,29.443,79.418,2200,08-04-2016,Kunjakharak Road Maniya Binayak Kosya Kutauli Nainital District,Uttarakhand,141
297,Pucrasia,macrolopha,Koklass Pheasant,31.1053,77.2399,2500,30-04-2015,Shimla,Himachal Pradesh,99
298,Pucrasia,macrolopha,Koklass Pheasant,30.491,79.1984,2700,06-05-2015,"Dogalbhita, Chamoli",Uttarakhand,175
299,Pucrasia,macrolopha,Koklass Pheasant,29.4154,79.4456,2400,20-10-2013,"Pangoot, Nainital",Uttarakhand,56
300,Pucrasia,macrolopha,Koklass Pheasant,29.485,79.354,2300,28-11-2012,Kunjakharak Road Maniya Binayak Nainital Nainital District,Uttarakhand,141
301,Pucrasia,macrolopha,Koklass Pheasant,28.17,97.021,1800,17-11-2019,"Tilam Top, Walong",Arunachal Pradesh,89
302,Pucrasia,macrolopha,Koklass Pheasant,29.46,79.38,1920,13-04-2019,NW of Pangot,Uttarakhand,141
303,Pucrasia,macrolopha,Koklass Pheasant,29.46,79.38,1268,13-04-2019,NW of Pangot,Uttarakhand,141
304,Pucrasia,macrolopha,Koklass Pheasant,31.52,77.8,2200,09-01-2013,"Sarahan, Shimla",Himachal Pradesh,99
305,Pucrasia,macrolopha,Koklass Pheasant,29.485,79.354,2300,24-11-2012,Kunjakharak Road Maniya Binayak Nainital Nainital District,Uttarakhand,141
306,Pucrasia,macrolopha,Koklass Pheasant,29.46,79.38,1643,13-04-2019,NW of Pangot,Uttarakhand,141
307,Pucrasia,macrolopha,Koklass Pheasant,30.3005,78.4223,2000,12-10-2017,"Dandachalli, Tehri Garhwal",Uttarakhand,175
308,Pucrasia,macrolopha,Koklass Pheasant,31.6881,77.4837,3000,04-04-2003,Great Himalayan NP,Himachal Pradesh,99
309,Pucrasia,macrolopha,Koklass Pheasant,31.7282,77.4921,3800,12-09-2012,Banjar Kullu District,Himachal Pradesh,99
310,Pucrasia,macrolopha,Koklass Pheasant,29.4673,79.3889,2700,02-03-2011,"Cheer Pheasant overlook, Pangot",Uttarakhand,141
311,Pucrasia,macrolopha,Koklass Pheasant,29.4673,79.3889,2700,02-03-2011,"Cheer Pheasant overlook, Pangot",Uttarakhand,141
312,Catreus,wallichii,Cheer Pheasant,29.3654,79.4589,1900,19-04-2020,Talllital Maneri Nainital Nainital District,Uttarakhand,53
313,Catreus,wallichii,Cheer Pheasant,31.52,77.8,2200,06-06-2013,"Sarahan, Shimla",Himachal Pradesh,99
314,Catreus,wallichii,Cheer Pheasant,29.4612,79.3968,2100,16-05-2013,"Patli, Almora",Uttarakhand,141
315,Catreus,wallichii,Cheer Pheasant,29.465,79.394,2300,16-05-2013,Kunjakharak Road Maniya Binayak Nainital Nainital District,Uttarakhand,141
316,Catreus,wallichii,Cheer Pheasant,29.7586,79.1672,1900,29-11-2022,"Dotiyal (near  Jorasi Range), Kumaon Division",Uttarakhand,123
317,Catreus,wallichii,Cheer Pheasant,29.46,79.38,1510,13-04-2019,NW of Pangot,Uttarakhand,141
318,Catreus,wallichii,Cheer Pheasant,29.4253,79.5106,1400,11-02-2013,NH109 Kainchi Kosya Kutauli Nainital District,Uttarakhand,51
319,Catreus,wallichii,Cheer Pheasant,29.4253,79.5106,1400,07-02-2013,NH109 Kainchi Kosya Kutauli Nainital District,Uttarakhand,51
320,Catreus,wallichii,Cheer Pheasant,29.46,79.38,1575,13-04-2019,NW of Pangot,Uttarakhand,141
321,Catreus,wallichii,Cheer Pheasant,30.0767,80.2333,2550,26-02-2017,"Munsyari, Pithoragarh",Uttarakhand,74
322,Lophura,leucomelanos,Kalij Pheasant,27.7309,88.5472,2800,08-10-2022,"Lachen, North Sikkim",Sikkim,69
323,Lophura,leucomelanos,Kalij Pheasant,26.8795,93.3243,120,26-09-2020,"Hatimara, Behali reserved forest",Assam,53
324,Lophura,leucomelanos,Kalij Pheasant,31.52,77.8,2200,06-01-2013,"Sarahan, Shimla",Himachal Pradesh,99
325,Lophura,leucomelanos,Kalij Pheasant,31.52,77.8,2200,06-01-2013,"Sarahan, Shimla",Himachal Pradesh,99
326,Lophura,leucomelanos,Kalij Pheasant,31.52,77.8,2200,15-12-2012,"Sarahan, Shimla",Himachal Pradesh,99
327,Lophura,leucomelanos,Kalij Pheasant,31.52,77.8,2200,15-12-2012,"Sarahan, Shimla",Himachal Pradesh,99
328,Lophura,leucomelanos,Kalij Pheasant,27,88.7001,1280,06-04-2001,"Lava, Darjeeling",West Bengal,69
329,Lophura,leucomelanos,Kalij Pheasant,29.5334,78.9334,1026,09-04-2019,Sapdull FRH Kotdwara Pauri Garhwal District,Uttarakhand,123
330,Lophura,leucomelanos,Kalij Pheasant,27.11667,92.43333,1539,01-04-2018,Eaglenest road Aloo Baari Ramalingram Singchung ADC West Kameng District,Arunachal Pradesh,151
331,Lophura,leucomelanos,Kalij Pheasant,30.0767,80.2333,2200,22-02-2017,"Munsyari, Pithoragarh",Uttarakhand,74
332,Lophura,leucomelanos,Kalij Pheasant,29.3528,79.5283,1300,20-05-2013,"Sattal, Nainital",Uttarakhand,56
333,Lophura,leucomelanos,Kalij Pheasant,31.52,77.8,2200,07-01-2013,"Sarahan, Shimla",Himachal Pradesh,99
334,Pavo,cristatus,Indian Peafowl,23.2175,72.6672,70,15-05-2022,"Punit Van, Gandhinagar",Gujarat,67
335,Pavo,cristatus,Indian Peafowl,12.0101,75.2003,0,29-09-2021,"Ettikulam, Kannur",Kerala,118
336,Pavo,cristatus,Indian Peafowl,12.0101,75.2003,0,29-09-2021,"Ettikulam, Kannur",Kerala,118
337,Pavo,cristatus,Indian Peafowl,26.0246,76.4543,380,08-05-1989,"Ranthambhore Fort, Sawai Madhopur",Rajasthan,159
338,Pavo,cristatus,Indian Peafowl,10.0399,77.3185,380,10-04-2021,"Peringassery, Theni",Tamil Nadu,91
339,Pavo,cristatus,Indian Peafowl,10.04,77.3184,380,10-04-2021,"Peringassery, Theni",Tamil Nadu,91
340,Pavo,cristatus,Indian Peafowl,10.04,77.3184,380,10-04-2021,"Peringassery, Theni",Tamil Nadu,91
341,Pavo,cristatus,Indian Peafowl,21.7177,79.3275,460,25-05-2011,Pench NP,Madhya Pradesh,161
342,Pavo,cristatus,Indian Peafowl,17.4054,78.5317,500,28-02-2020,"Hyderabad, Hyderabad",Telangana,60
343,Pavo,cristatus,Indian Peafowl,17.4855,78.2678,550,17-07-2019,ICRISAT,Telangana,153
344,Pavo,cristatus,Indian Peafowl,11.1633,78.158,200,13-05-2017,Namakkal,Tamil Nadu,999
345,Pavo,cristatus,Indian Peafowl,15.5238,73.8517,0,16-11-2016,"Bardez (near  Donwaddo, Salvador Do Mundo, Bardez), North Goa",Goa,46
346,Pavo,cristatus,Indian Peafowl,15.2087,74.1258,20,15-08-2014,"Cotarli,Sanguem, South Goa",Goa,46
347,Pavo,cristatus,Indian Peafowl,22.2983,80.5883,650,29-05-2009,"Kanha National Park, Balaghat",Madhya Pradesh,100
348,Pavo,cristatus,Indian Peafowl,25.135,72.6766,180,13-01-2014,"Siyana, Jalore",Rajasthan,160
349,Pavo,cristatus,Indian Peafowl,15.5886,73.8765,0,20-09-2012,"Aldona, North Goa",Goa,46
350,Pavo,cristatus,Indian Peafowl,15.5886,73.8765,0,05-05-2012,"Aldona, North Goa",Goa,46
351,Pavo,cristatus,Indian Peafowl,18.5937,75.3052,550,16-09-2012,Nannaj,Maharashtra,107
352,Pavo,cristatus,Indian Peafowl,28.5057,77.2202,240,03-11-2012,"K.S. Palace, Sanik Farm, New Delhi",Delhi,197
353,Pavo,cristatus,Indian Peafowl,16.8684,75.6917,550,30-07-2021,"Itangihal, Bijapur",Karnataka,63
354,Pavo,cristatus,Indian Peafowl,21.6536,79.3501,440,02-03-2007,Khursapar Ramtek Taluka Nagpur District,Maharashtra,161
355,Pavo,cristatus,Indian Peafowl,16.866,75.7371,550,27-12-2019,"Hanchinal, Bijapur",Karnataka,63
356,Pavo,cristatus,Indian Peafowl,29.5334,78.9334,600,1974-04-00,Sapdull FRH Kotdwara Pauri Garhwal District,Uttarakhand,123
357,Pavo,cristatus,Indian Peafowl,29.5334,78.9334,600,1974-04-00,Sapdull FRH Kotdwara Pauri Garhwal District,Uttarakhand,123
358,Pavo,cristatus,Indian Peafowl,29.5334,78.9334,600,1974-04-00,Sapdull FRH Kotdwara Pauri Garhwal District,Uttarakhand,123
359,Pavo,cristatus,Indian Peafowl,27.1593,77.5232,308,06-04-2019,"Keoladeo National Park, Bharatpur",Rajasthan,124
360,Pavo,cristatus,Indian Peafowl,15.5334,73.8286,40,28-01-2019,"Bardez (near  Penha de França), North Goa",Goa,46
361,Pavo,cristatus,Indian Peafowl,13.347,74.788,100,21-07-2018,"Manipal, Udupi",Karnataka,86
362,Pavo,cristatus,Indian Peafowl,11.0477,76.8642,550,20-02-2018,"Coimbatore, Coimbatore",Tamil Nadu,999
363,Pavo,cristatus,Indian Peafowl,11.5515,76.6501,232,19-04-2017,"Mysore-Ooty Rooad, The Nilgiris County",Tamil Nadu,63
364,Pavo,cristatus,Indian Peafowl,11.5515,76.6501,369,19-04-2017,"Mysore-Ooty Rooad, The Nilgiris County",Tamil Nadu,63
365,Pavo,cristatus,Indian Peafowl,22.1991,80.9449,750,25-02-2015,"Supkhar reserve forest, Balaghat",Madhya Pradesh,92
366,Pavo,cristatus,Indian Peafowl,15.5442,73.7733,10,13-11-2014,"Bardez (near  Calangute), North Goa",Goa,46
367,Pavo,cristatus,Indian Peafowl,15.4641,74.1303,100,07-05-2010,"Paikul Village, Melauli",Goa,46
368,Pavo,cristatus,Indian Peafowl,24.621,72.762,1500,29-05-2012,Mount Abu WLS Abu Road Tehsil Sirohi District,Rajasthan,147
369,Pavo,cristatus,Indian Peafowl,28.5467,77.1712,330,14-03-2008,JNU Sports Complex Foot Path to Open Air Theatre Mehrauli Tehsil South Delhi District,Delhi,626
370,Pavo,cristatus,Indian Peafowl,10.9833,76.7341,480,27-08-2017,"Booluvampatti, Coimbatore",Tamil Nadu,63
371,Pavo,cristatus,Indian Peafowl,15.5442,73.7733,10,16-11-2014,"Bardez (near  Calangute), North Goa",Goa,46
372,Pavo,cristatus,Indian Peafowl,15.5442,73.7733,10,11-11-2014,"Bardez (near  Calangute), North Goa",Goa,46
373,Pavo,cristatus,Indian Peafowl,15.5334,73.8167,50,12-05-2010,Pilerne,Goa,46
374,Pavo,cristatus,Indian Peafowl,28.494,77.159,200,13-03-2011,"The Estate, Sultanpur",Delhi,197
375,Pavo,cristatus,Indian Peafowl,10.7369,77.5258,260,09-08-2022,"Pookkadai Corner Bus Stop (near  Dharapuram), Tiruppur",Tamil Nadu,999
376,Pavo,cristatus,Indian Peafowl,12.0579,75.5804,50,03-09-2022,"Payyavoor, Kannur",Kerala,118
377,Galloperdix,spadicea,Red Spurfowl,13.6541,79.4558,140,01-04-2020,"Tirupati, Chittoor",Andhra Pradesh,99
378,Galloperdix,spadicea,Red Spurfowl,11.8486,75.9394,750,15-01-2023,Mananthavady Wayanad District,Kerala,71
379,Galloperdix,spadicea,Red Spurfowl,10.3406,76.3467,30,15-08-2021,"Kodassery, Thrissur",Kerala,88
380,Galloperdix,spadicea,Red Spurfowl,12.7627,77.5984,850,01-04-2021,"Bengaluru, Bangalore Urban",Karnataka,67
381,Galloperdix,spadicea,Red Spurfowl,10.0965,77.0582,1500,04-02-2016,"Nr Munnar (not exact location) Kannan Devan Hills, Idukki",Kerala,91
382,Galloperdix,spadicea,Red Spurfowl,21.5834,77.3334,650,29-01-2016,Melghat Tiger Reserve,Maharashtra,137
383,Galloperdix,spadicea,Red Spurfowl,19.2032,72.9198,140,15-04-2016,"Mumbai, Mumbai Suburban",Maharashtra,118
384,Galloperdix,spadicea,Red Spurfowl,15.3622,73.8918,10,08-01-2015,Pale-Velsao,Goa,46
386,Galloperdix,spadicea,Red Spurfowl,21.5834,77.3334,650,29-01-2016,Melghat Tiger Reserve,Maharashtra,137
387,Galloperdix,spadicea,Red Spurfowl,9.6031376,77.1668688,364,12-04-2017,"Thekkady--Bamboo Grooves, Kumily Thekkady Road, Idukki County",Kerala,172
388,Galloperdix,spadicea,Red Spurfowl,10.1962539,76.698035,371,10-04-2017,"Idamalayer Dam Road, Idukki County",Kerala,91
389,Galloperdix,spadicea,Red Spurfowl,13.3614,77.6721,1100,18-02-2017,Chikballapur,Karnataka,90
390,Galloperdix,spadicea,Red Spurfowl,15.8657,74.0592,800,19-06-2016,"Chaukul, Sindhudurg",Maharashtra,46
391,Galloperdix,spadicea,Red Spurfowl,15.5886,73.8765,0,18-10-2012,"Aldona, North Goa",Goa,46
392,Galloperdix,spadicea,Red Spurfowl,15.5886,73.8765,0,21-10-2012,"Aldona, North Goa",Goa,46
393,Galloperdix,spadicea,Red Spurfowl,15.5886,73.8765,0,21-10-2012,"Aldona, North Goa",Goa,46
394,Galloperdix,spadicea,Red Spurfowl,24.619,72.762,1500,29-05-2012,Mount Abu WLS Abu Road Tehsil Sirohi District,Rajasthan,147
395,Galloperdix,spadicea,Red Spurfowl,12.050317,76.130705,311,28-11-2002,Nagarhole National Park,Karnataka,71
396,Galloperdix,spadicea,Red Spurfowl,12.0579,75.5804,50,11-11-2022,"Payyavoor, Kannur",Kerala,118
397,Galloperdix,spadicea,Red Spurfowl,15.5334,73.8286,40,18-12-2018,"Bardez (near  Penha de França), North Goa",Goa,46
398,Galloperdix,spadicea,Red Spurfowl,11.2759,76.2188,30,09-01-2016,"Nilambur, Malappuram",Kerala,63
399,Galloperdix,spadicea,Red Spurfowl,21.5834,77.3334,650,29-01-2016,Melghat Tiger Reserve,Maharashtra,137
400,Galloperdix,spadicea,Red Spurfowl,16.8148,74.1111,950,25-11-2017,"Panhala, Kolhapur",Maharashtra,46
401,Galloperdix,spadicea,Red Spurfowl,10.1962539,76.698035,467,10-04-2017,"Idamalayer Dam Road, Idukki County",Kerala,91
402,Galloperdix,spadicea,Red Spurfowl,11.2759,76.2188,30,10-12-2015,"Nilambur, Malappuram",Kerala,63
403,Galloperdix,spadicea,Red Spurfowl,11.9676,75.772,70,14-03-2015,"Aralam WLS, Kannur",Kerala,118
404,Galloperdix,spadicea,Red Spurfowl,10.4084,76.7191,500,26-01-2015,"Parambikulam Tiger Reserve, Palakkad",Kerala,88
405,Galloperdix,spadicea,Red Spurfowl,15.3622,73.8918,10,10-12-2014,Pale-Velsao,Goa,46
406,Galloperdix,spadicea,Red Spurfowl,11.805,75.859,1000,18-02-2012,Churuli Mananthavady Wayanad District,Kerala,118
407,Galloperdix,lunulata,Painted Spurfowl,13.6541,79.4558,140,01-04-2020,"Tirupati, Chittoor",Andhra Pradesh,99
408,Galloperdix,lunulata,Painted Spurfowl,13.6547,79.4562,140,03-02-2020,"Tirupati, Chittoor",Andhra Pradesh,99
409,Galloperdix,lunulata,Painted Spurfowl,12.7627,77.5984,850,29-03-2021,"Bengaluru, Bangalore Urban",Karnataka,67
410,Galloperdix,lunulata,Painted Spurfowl,13.6518,79.4163,180,19-08-2017,"Balaji Enclave (near  Tirupati), Chittoor",Andhra Pradesh,99
411,Polyplectron,bicalcaratum,Grey Peacock-Pheasant,27.1001,92.4001,1600,03-04-2015,Rupa SDO West Kameng District,Arunachal Pradesh,151
412,Polyplectron,bicalcaratum,Grey Peacock-Pheasant,27.0223,92.4139,1063,02-04-2018,Eaglenest road Khellong Kamengbari Doimara Circle West Kameng District,Arunachal Pradesh,151
413,Polyplectron,bicalcaratum,Grey Peacock-Pheasant,27.0223,92.4139,1073,02-04-2018,Eaglenest road Khellong Kamengbari Doimara Circle West Kameng District,Arunachal Pradesh,151
414,Polyplectron,bicalcaratum,Grey Peacock-Pheasant,27.0223,92.4139,1000,28-04-2013,Eaglenest road Khellong Kamengbari Doimara Circle West Kameng District,Arunachal Pradesh,151
415,Polyplectron,bicalcaratum,Grey Peacock-Pheasant,27.1001,92.4001,1300,19-04-2011,Eaglenest Wildlife Sanctuary,Arunachal Pradesh,151
416,Polyplectron,bicalcaratum,Grey Peacock-Pheasant,27.1001,92.4001,1300,19-04-2011,Eaglenest Wildlife Sanctuary,Arunachal Pradesh,151
417,Polyplectron,bicalcaratum,Grey Peacock-Pheasant,27.1001,92.4001,1300,19-04-2011,Eaglenest Wildlife Sanctuary,Arunachal Pradesh,151
418,Polyplectron,bicalcaratum,Grey Peacock-Pheasant,27.047,92.419,1200,04-03-2017,"Sessni Camp, Eaglenest",Arunachal Pradesh,151
419,Polyplectron,bicalcaratum,Grey Peacock-Pheasant,27.047,92.419,1250,04-03-2017,"Sessni Camp, Eaglenest",Arunachal Pradesh,151
420,Polyplectron,bicalcaratum,Grey Peacock-Pheasant,27.1567,92.4606,2400,22-04-2019,"Lama Camp, near Eaglenest WLS",Arunachal Pradesh,151
421,Polyplectron,bicalcaratum,Grey Peacock-Pheasant,27.4856,96.2153,320,02-01-1998,"Miao, Changlang District",Arunachal Pradesh,89
422,Bambusicola,fytchii,Mountain Bamboo Partridge,25.6152,94.0014,2600,17-02-2019,Khonoma,Nagaland,155
423,Bambusicola,fytchii,Mountain Bamboo Partridge,25.5719,93.8576,1900,07-11-2018,"Benreu, Peren",Nagaland,155
424,Bambusicola,fytchii,Mountain Bamboo Partridge,25.8488,94.9617,2500,11-05-2015,"Tsundang village, Kiphire",Nagaland,155
425,Bambusicola,fytchii,Mountain Bamboo Partridge,25.6501,94.0334,1750,06-01-2015,Khonoma Village,Nagaland,155
426,Bambusicola,fytchii,Mountain Bamboo Partridge,25.6389,93.9891,2100,04-11-2018,Kohima,Nagaland,155
427,Gallus,gallus,Red Junglefowl,30.0568,78.2896,302,20-04-2019,Cheela Dam - Rishikesh Road Yamkeshwar Pauri Garhwal District,Uttarakhand,175
428,Gallus,gallus,Red Junglefowl,29.5334,78.9334,303,10-04-2019,Sapdull FRH Kotdwara Pauri Garhwal District,Uttarakhand,123
429,Gallus,gallus,Red Junglefowl,29.5334,78.9334,415,09-04-2019,Sapdull FRH Kotdwara Pauri Garhwal District,Uttarakhand,123
430,Gallus,gallus,Red Junglefowl,26.935667,92.843335,233,07-04-2018,"River side, Nameri National Park",Assam,53
431,Gallus,gallus,Red Junglefowl,26.935667,92.843335,426,07-04-2018,"River side, Nameri National Park",Assam,53
432,Gallus,gallus,Red Junglefowl,30.6072,77.4615,700,20-10-2016,"Renuka Ji, Sirmaur",Himachal Pradesh,142
433,Gallus,gallus,Red Junglefowl,30.6072,77.4615,700,20-10-2016,"Renuka Ji, Sirmaur",Himachal Pradesh,142
434,Gallus,gallus,Red Junglefowl,22.2983,80.5883,650,30-05-2009,"Kanha National Park, Balaghat",Madhya Pradesh,100
435,Gallus,gallus,Red Junglefowl,22.2983,80.5883,650,29-05-2009,"Kanha National Park, Balaghat",Madhya Pradesh,100
436,Gallus,gallus,Red Junglefowl,30.2845,77.9743,600,05-03-2013,"Dehradun, Dehradun",Uttarakhand,175
437,Gallus,gallus,Red Junglefowl,26.6667,93.3501,90,24-11-2012,Kaziranga National Park,Assam,53
438,Gallus,gallus,Red Junglefowl,29.529,78.775,274,16-05-2012,Paterpani FRH Kotdwara Pauri Garhwal District,Uttarakhand,123
439,Gallus,gallus,Red Junglefowl,21.6495,79.2451,500,03-12-2022,"Nagpur (near  Totaladoh), Nagpur Division",Maharashtra,161
440,Gallus,gallus,Red Junglefowl,29.5334,78.9334,600,1974-04-00,Sapdull FRH Kotdwara Pauri Garhwal District,Uttarakhand,123
441,Gallus,gallus,Red Junglefowl,29.5334,78.9334,600,1974-04-00,Sapdull FRH Kotdwara Pauri Garhwal District,Uttarakhand,123
442,Gallus,gallus,Red Junglefowl,30.2824,77.974,600,14-04-2019,"Dehradun, Dehradun",Uttarakhand,175
443,Gallus,gallus,Red Junglefowl,30.0568,78.2896,330,20-04-2019,Cheela Dam - Rishikesh Road Yamkeshwar Pauri Garhwal District,Uttarakhand,175
445,Gallus,gallus,Red Junglefowl,26.8726,88.8701,180,05-05-2018,"Upper Tendu Forest M, Jalpaiguri",West Bengal,121
446,Gallus,gallus,Red Junglefowl,24.4739,92.2877,50,08-03-2015,"Bazarghat F.V., Karimganj",Assam,37
447,Gallus,gallus,Red Junglefowl,28.2073,95.8086,800,13-04-2013,"Mishmi Hills, nr Tawarigaon (1)",Arunachal Pradesh,89
448,Gallus,gallus,Red Junglefowl,26.9498,92.7053,278,29-03-2007,Nameri National Park,Assam,53
449,Gallus,gallus,Red Junglefowl,29.5334,78.9334,313,09-04-2019,Sapdull FRH Kotdwara Pauri Garhwal District,Uttarakhand,123
450,Gallus,gallus,Red Junglefowl,30.2805,77.9608,600,14-04-2019,"Karwapani-Asarori Fireline, Dehradun",Uttarakhand,175
451,Gallus,sonneratii,Grey Junglefowl,12.8507,77.5063,800,20-02-2019,"Bengaluru, Bangalore Urban",Karnataka,83
452,Gallus,sonneratii,Grey Junglefowl,10.5215,76.6724,950,04-12-2022,Palakkad (near  Nooradi),Kerala,88
453,Gallus,sonneratii,Grey Junglefowl,11.4136,76.8731,1800,01-05-2022,"Aravenu, Nilgiris",Tamil Nadu,63
454,Gallus,sonneratii,Grey Junglefowl,10.0448,77.307,440,11-04-2021,"Peringassery, Theni",Tamil Nadu,91
455,Gallus,sonneratii,Grey Junglefowl,10.0448,77.307,440,11-04-2021,"Peringassery, Theni",Tamil Nadu,91
456,Gallus,sonneratii,Grey Junglefowl,10.0448,77.307,440,11-04-2021,"Peringassery, Theni",Tamil Nadu,91
457,Gallus,sonneratii,Grey Junglefowl,10.3862,77.547,360,24-01-2021,"Varadhamanathi dam, Palani",Tamil Nadu,999
458,Gallus,sonneratii,Grey Junglefowl,9.5087,77.1982,870,18-12-1998,Periyar National Park,Kerala,172
459,Gallus,sonneratii,Grey Junglefowl,11.5306,76.6418,1100,04-12-1998,Mudumalai Wildlife Sanctuary & National Park,Tamil Nadu,63
460,Gallus,sonneratii,Grey Junglefowl,11.5306,76.6418,1100,04-12-1998,Mudumalai Wildlife Sanctuary & National Park,Tamil Nadu,63
461,Gallus,sonneratii,Grey Junglefowl,17.9306,73.5988,750,18-03-2011,SH 72 Kumbhrosh Mahabaleshwar Satara District,Maharashtra,87
462,Gallus,sonneratii,Grey Junglefowl,18.446,73.4266,600,09-04-2011,Tamhini-Adaravadi trail Tamhini Mulshi Pune District,Maharashtra,87
463,Gallus,sonneratii,Grey Junglefowl,18.446,73.4266,600,09-04-2011,Tamhini-Adaravadi trail Tamhini Mulshi Pune District,Maharashtra,87
464,Gallus,sonneratii,Grey Junglefowl,18.446,73.4266,600,09-04-2011,Tamhini-Adaravadi trail Tamhini Mulshi Pune District,Maharashtra,87
465,Gallus,sonneratii,Grey Junglefowl,18.446,73.4266,600,09-04-2011,Tamhini-Adaravadi trail Tamhini Mulshi Pune District,Maharashtra,87
466,Gallus,sonneratii,Grey Junglefowl,18.446,73.4266,600,09-04-2011,Tamhini-Adaravadi trail Tamhini Mulshi Pune District,Maharashtra,87
467,Gallus,sonneratii,Grey Junglefowl,18.446,73.4266,600,09-04-2011,Tamhini-Adaravadi trail Tamhini Mulshi Pune District,Maharashtra,87
468,Gallus,sonneratii,Grey Junglefowl,18.446,73.4266,600,09-04-2011,Tamhini-Adaravadi trail Tamhini Mulshi Pune District,Maharashtra,87
469,Gallus,sonneratii,Grey Junglefowl,11.091,76.772,700,05-05-2020,Anaikatti Coimbatore North Coimbatore District,Tamil Nadu,63
470,Gallus,sonneratii,Grey Junglefowl,15.0116,74.2364,550,23-07-2017,"Cotigao Wildlife Sanctuary, South Goa",Goa,46
471,Gallus,sonneratii,Grey Junglefowl,15.4346,74.0985,320,13-11-2019,"Bondla Wildlife Sanctuary , North Goa",Goa,46
472,Gallus,sonneratii,Grey Junglefowl,11.7013,76.6361,900,08-02-2016,"nr Mudumalai, Mel Kamanahalli, Chamarajanagar",Karnataka,63
473,Gallus,sonneratii,Grey Junglefowl,10.1257,76.6822,60,03-02-2016,"Thattekad Bird Sanctuary nr Periyar River, Ernakulam",Kerala,91
474,Gallus,sonneratii,Grey Junglefowl,11.5983,75.9258,750,20-03-2019,"Malabar WLS, Kakkayam, Kozhikode",Kerala,118
475,Gallus,sonneratii,Grey Junglefowl,10.1577,76.6038,110,01-01-2018,Ernakulam,Kerala,91
476,Gallus,sonneratii,Grey Junglefowl,10.1962539,76.698035,602,10-04-2017,"Idamalayer Dam Road, Idukki County",Kerala,91
477,Gallus,sonneratii,Grey Junglefowl,14.9721,74.1471,110,26-02-2009,"Khotigao, Uttara Kannada",Goa,46
478,Gallus,sonneratii,Grey Junglefowl,15.2843,74.5302,550,02-01-2015,"Ganeshgudi, Uttara Kannada",Karnataka,46
479,Gallus,sonneratii,Grey Junglefowl,17.7208,73.8237,1200,12-05-2014,"Yekiv, Satara",Maharashtra,87
480,Gallus,sonneratii,Grey Junglefowl,11.091,76.772,600,25-05-2012,Anaikatti Coimbatore North Coimbatore District,Tamil Nadu,63
481,Gallus,sonneratii,Grey Junglefowl,13.347,74.789,117,04-05-2011,Manipal Udupi taluku Udupi District,Karnataka,86
482,Gallus,sonneratii,Grey Junglefowl,13.347,74.789,117,28-02-2010,Manipal Udupi taluku Udupi District,Karnataka,86
483,Gallus,sonneratii,Grey Junglefowl,10.4395,76.8703,751,19-01-2010,"Top Slip, Indira Gandhi National Park, Coimbatore",Tamil Nadu,88
484,Gallus,sonneratii,Grey Junglefowl,11.5306,76.6418,1000,04-12-1998,Nilgiris (near  Sholur),Tamil Nadu,63
485,Gallus,sonneratii,Grey Junglefowl,11.5306,76.6418,1000,04-12-1998,Nilgiris (near  Sholur),Tamil Nadu,63
486,Gallus,sonneratii,Grey Junglefowl,10.0448,77.307,440,11-04-2021,"Peringassery, Theni",Tamil Nadu,91
487,Gallus,sonneratii,Grey Junglefowl,10.0448,77.307,440,11-04-2021,"Peringassery, Theni",Tamil Nadu,91
488,Gallus,sonneratii,Grey Junglefowl,17.9306,73.5988,750,18-03-2011,SH 72 Kumbhrosh Mahabaleshwar Satara District,Maharashtra,87
489,Gallus,sonneratii,Grey Junglefowl,10.1257,76.6822,60,02-02-2016,"Thattekad Bird Sanctuary nr Periyar River, Ernakulam",Kerala,91
490,Gallus,sonneratii,Grey Junglefowl,10.4084,76.7191,500,09-10-2016,"Parambikulam Tiger Reserve, Palakkad",Kerala,88
491,Gallus,sonneratii,Grey Junglefowl,11.3362,76.1102,650,10-01-2016,"Kakkadampoyil, Malappuram",Kerala,63
492,Gallus,sonneratii,Grey Junglefowl,10.108,76.713,50,12-11-2017,Neriamangalam Kothamangalam Ernakulam District,Kerala,91
493,Gallus,sonneratii,Grey Junglefowl,11.3362,76.1102,650,19-03-2017,"Kakkadampoyil, Malappuram",Kerala,63
494,Gallus,sonneratii,Grey Junglefowl,12.8542,77.5098,800,19-03-2016,NICE Peripheral Ring Road Badamanavarthekaval Doddabele Bangalore South Bengaluru Urban,Karnataka,83
495,Gallus,sonneratii,Grey Junglefowl,19.2239,72.8951,70,07-05-2016,"Mumbai, Mumbai Suburban",Maharashtra,71
496,Gallus,sonneratii,Grey Junglefowl,9.1361,77.0057,60,06-03-2016,"Konni Forest, Pathanamthitta",Kerala,172
497,Gallus,sonneratii,Grey Junglefowl,11.9676,75.772,70,15-03-2015,"Aralam WLS, Kannur",Kerala,118
498,Gallus,sonneratii,Grey Junglefowl,15.3314,74.3681,600,13-03-2015,"Aveda Poppal Wadi, Uttara Kannada",Karnataka,46
499,Gallus,sonneratii,Grey Junglefowl,15.399,74.176,100,06-03-2015,Molem National Park,Goa,46
